{"businesses": [{"id": "cPGRnd9XwF90fhzGCNsfTw", "alias": "choupli-wood-fired-kabob-lansing-2", "name": "Choupli Wood Fired Kabob", "image_url": "https://s3-media3.fl.yelpcdn.com/bphoto/tn91tqS7M8mZwHzohNRSug/o.jpg", "is_closed": false, "url": "https://www.yelp.com/biz/choupli-wood-fired-kabob-lansing-2?adjust_creative=AjN1MMXyFUuMRUP2FepIVg&utm_campaign=yelp_api_v3&utm_medium=api_v3_business_search&utm_source=AjN1MMXyFUuMRUP2FepIVg", "review_count": 376, "categories": [{"alias": "mediterranean", "title": "Mediterranean"}, {"alias": "turkish", "title": "Turkish"}, {"alias": "mideastern", "title": "Middle Eastern"}], "rating": 5.0, "coordinates": {"latitude": 42.7409884935827, "longitude": -84.6118634801442}, "transactions": ["delivery", "pickup"], "price": "$", "location": {"address1": "4411 W Saginaw Hwy", "address2": null, "address3": "", "city": "Lansing", "zip_code": "48917", "country": "US", "state": "MI", "display_address": ["4411 W Saginaw Hwy", "Lansing, MI 48917"]}, "phone": "+15177080404", "display_phone": "(517) 708-0404", "distance": 3791.621145664434}, {"id": "iZc-qk2GuyuYcOs7Y9Z7JQ", "alias": "meat-bbq-lansing", "name": "Meat BBQ", "image_url": "https://s3-media1.fl.yelpcdn.com/bphoto/vBHt6rlRrgwLSkI9x_Wpow/o.jpg", "is_closed": false, "url": "https://www.yelp.com/biz/meat-bbq-lansing?adjust_creative=AjN1MMXyFUuMRUP2FepIVg&utm_campaign=yelp_api_v3&utm_medium=api_v3_business_search&utm_source=AjN1MMXyFUuMRUP2FepIVg", "review_count": 600, "categories": [{"alias": "bbq", "title": "Barbeque"}, {"alias": "southern", "title": "Southern"}], "rating": 4.5, "coordinates": {"latitude": 42.7481511, "longitude": -84.5494017}, "transactions": ["delivery"], "price": "$$", "location": {"address1": "1224 Turner St", "address2": "", "address3": "", "city": "Lansing", "zip_code": "48906", "country": "US", "state": "MI", "display_address": ["1224 Turner St", "Lansing, MI 48906"]}, "phone": "+15175804400", "display_phone": "(517) 580-4400", "distance": 2721.8278837199346}, {"id": "v7GTSq0JcB0mXEfxL4UOWg", "alias": "the-soup-spoon-cafe-lansing", "name": "The Soup Spoon Cafe", "image_url": "https://s3-media2.fl.yelpcdn.com/bphoto/MSAg_KVyHlE0n9qSl-TFrQ/o.jpg", "is_closed": false, "url": "https://www.yelp.com/biz/the-soup-spoon-cafe-lansing?adjust_creative=AjN1MMXyFUuMRUP2FepIVg&utm_campaign=yelp_api_v3&utm_medium=api_v3_business_search&utm_source=AjN1MMXyFUuMRUP2FepIVg", "review_count": 685, "categories": [{"alias": "breakfast_brunch", "title": "Breakfast & Brunch"}, {"alias": "bars", "title": "Bars"}, {"alias": "newamerican", "title": "American (New)"}], "rating": 4.0, "coordinates": {"latitude": 42.7337149, "longitude": -84.530437}, "transactions": ["restaurant_reservation", "delivery", "pickup"], "price": "$$", "location": {"address1": "1419 E Michigan Ave", "address2": "", "address3": "", "city": "Lansing", "zip_code": "48912", "country": "US", "state": "MI", "display_address": ["1419 E Michigan Ave", "Lansing, MI 48912"]}, "phone": "+15173162377", "display_phone": "(517) 316-2377", "distance": 3183.943778724667}, {"id": "m7O6ZFXNqmMSfUNXB7l2Yg", "alias": "naing-myanmar-family-restaurant-lansing", "name": "Naing Myanmar Family Restaurant", "image_url": "https://s3-media4.fl.yelpcdn.com/bphoto/FzVX1zXq-i3zpntA_lurng/o.jpg", "is_closed": false, "url": "https://www.yelp.com/biz/naing-myanmar-family-restaurant-lansing?adjust_creative=AjN1MMXyFUuMRUP2FepIVg&utm_campaign=yelp_api_v3&utm_medium=api_v3_business_search&utm_source=AjN1MMXyFUuMRUP2FepIVg", "review_count": 317, "categories": [{"alias": "burmese", "title": "Burmese"}, {"alias": "thai", "title": "Thai"}, {"alias": "malaysian", "title": "Malaysian"}], "rating": 4.5, "coordinates": {"latitude": 42.698443, "longitude": -84.548959}, "transactions": ["delivery"], "price": "$$", "location": {"address1": "3308 S Cedar St", "address2": "Ste 3", "address3": "", "city": "Lansing", "zip_code": "48910", "country": "US", "state": "MI", "display_address": ["3308 S Cedar St", "Ste 3", "Lansing, MI 48910"]}, "phone": "+18576158393", "display_phone": "(857) 615-8393", "distance": 3689.2511619368947}, {"id": "M35hpOEOkSftheUfiOd_0g", "alias": "good-truckin-diner-lansing", "name": "Good Truckin' Diner", "image_url": "https://s3-media4.fl.yelpcdn.com/bphoto/agKOR-AWDDvArsu6xkR9ww/o.jpg", "is_closed": false, "url": "https://www.yelp.com/biz/good-truckin-diner-lansing?adjust_creative=AjN1MMXyFUuMRUP2FepIVg&utm_campaign=yelp_api_v3&utm_medium=api_v3_business_search&utm_source=AjN1MMXyFUuMRUP2FepIVg", "review_count": 231, "categories": [{"alias": "diners", "title": "Diners"}, {"alias": "tradamerican", "title": "American (Traditional)"}], "rating": 4.5, "coordinates": {"latitude": 42.721538, "longitude": -84.552038}, "transactions": ["delivery"], "price": "$", "location": {"address1": "1107 S Washington Ave", "address2": "", "address3": "", "city": "Lansing", "zip_code": "48910", "country": "US", "state": "MI", "display_address": ["1107 S Washington Ave", "Lansing, MI 48910"]}, "phone": "+15172537961", "display_phone": "(517) 253-7961", "distance": 1550.551445272914}, {"id": "EDTzc8ZPBKBLW4CTiAvL-Q", "alias": "el-oasis-lansing", "name": "El Oasis", "image_url": "https://s3-media4.fl.yelpcdn.com/bphoto/Je80vQ3PGL23cpIY2z5R0Q/o.jpg", "is_closed": false, "url": "https://www.yelp.com/biz/el-oasis-lansing?adjust_creative=AjN1MMXyFUuMRUP2FepIVg&utm_campaign=yelp_api_v3&utm_medium=api_v3_business_search&utm_source=AjN1MMXyFUuMRUP2FepIVg", "review_count": 231, "categories": [{"alias": "mexican", "title": "Mexican"}, {"alias": "foodtrucks", "title": "Food Trucks"}], "rating": 4.5, "coordinates": {"latitude": 42.73375017, "longitude": -84.516201}, "transactions": ["delivery", "pickup"], "price": "$", "location": {"address1": "2501 E Michigan Ave", "address2": "", "address3": "", "city": "Lansing", "zip_code": "48912", "country": "US", "state": "MI", "display_address": ["2501 E Michigan Ave", "Lansing, MI 48912"]}, "phone": "+15176487693", "display_phone": "(517) 648-7693", "distance": 4333.669511344772}, {"id": "pZVBIaPUGBUbSotvyJWIgA", "alias": "zaytoon-mediterranean-lansing", "name": "Zaytoon Mediterranean", "image_url": "https://s3-media3.fl.yelpcdn.com/bphoto/MvyfhLlJbomG2NF1kNRLBA/o.jpg", "is_closed": false, "url": "https://www.yelp.com/biz/zaytoon-mediterranean-lansing?adjust_creative=AjN1MMXyFUuMRUP2FepIVg&utm_campaign=yelp_api_v3&utm_medium=api_v3_business_search&utm_source=AjN1MMXyFUuMRUP2FepIVg", "review_count": 248, "categories": [{"alias": "mediterranean", "title": "Mediterranean"}, {"alias": "mideastern", "title": "Middle Eastern"}], "rating": 4.5, "coordinates": {"latitude": 42.7445286743947, "longitude": -84.6219610756388}, "transactions": ["delivery", "pickup"], "price": "$$", "location": {"address1": "940 Elmwood Rd", "address2": "", "address3": "", "city": "Lansing", "zip_code": "48917", "country": "US", "state": "MI", "display_address": ["940 Elmwood Rd", "Lansing, MI 48917"]}, "phone": "+15172035728", "display_phone": "(517) 203-5728", "distance": 4714.0393085684245}, {"id": "tSQ5o3iKG2qFhHGk5VqBHg", "alias": "the-cosmos-wood-fired-pizza-lansing", "name": "The Cosmos Wood-Fired Pizza", "image_url": "https://s3-media3.fl.yelpcdn.com/bphoto/VHPVKIHxy81jiFRT_rDkyQ/o.jpg", "is_closed": false, "url": "https://www.yelp.com/biz/the-cosmos-wood-fired-pizza-lansing?adjust_creative=AjN1MMXyFUuMRUP2FepIVg&utm_campaign=yelp_api_v3&utm_medium=api_v3_business_search&utm_source=AjN1MMXyFUuMRUP2FepIVg", "review_count": 265, "categories": [{"alias": "pizza", "title": "Pizza"}], "rating": 4.5, "coordinates": {"latitude": 42.747752, "longitude": -84.544124}, "transactions": ["delivery"], "price": "$$", "location": {"address1": "1200 N Larch St", "address2": "", "address3": "", "city": "Lansing", "zip_code": "48906", "country": "US", "state": "MI", "display_address": ["1200 N Larch St", "Lansing, MI 48906"]}, "phone": "+15178973563", "display_phone": "(517) 897-3563", "distance": 2946.560491627814}, {"id": "d3oX54u9J2tnKk4csVpqZQ", "alias": "bowdies-chophouse-lansing-lansing", "name": "Bowdies Chophouse- Lansing", "image_url": "https://s3-media3.fl.yelpcdn.com/bphoto/pxvnJUW-l6hCd7zop2hO4A/o.jpg", "is_closed": false, "url": "https://www.yelp.com/biz/bowdies-chophouse-lansing-lansing?adjust_creative=AjN1MMXyFUuMRUP2FepIVg&utm_campaign=yelp_api_v3&utm_medium=api_v3_business_search&utm_source=AjN1MMXyFUuMRUP2FepIVg", "review_count": 97, "categories": [{"alias": "steak", "title": "Steakhouses"}, {"alias": "cocktailbars", "title": "Cocktail Bars"}], "rating": 5.0, "coordinates": {"latitude": 42.73326, "longitude": -84.54853}, "transactions": ["delivery"], "location": {"address1": "320 E Michigan Ave", "address2": "", "address3": null, "city": "Lansing", "zip_code": "48933", "country": "US", "state": "MI", "display_address": ["320 E Michigan Ave", "Lansing, MI 48933"]}, "phone": "+15175804792", "display_phone": "(517) 580-4792", "distance": 1733.7272018980198}, {"id": "JE1eYgCi2cAHTx8N6ULfpQ", "alias": "saddleback-bbq-lansing", "name": "Saddleback BBQ", "image_url": "https://s3-media2.fl.yelpcdn.com/bphoto/pbK710Ao2KGCEYJweMvcnA/o.jpg", "is_closed": false, "url": "https://www.yelp.com/biz/saddleback-bbq-lansing?adjust_creative=AjN1MMXyFUuMRUP2FepIVg&utm_campaign=yelp_api_v3&utm_medium=api_v3_business_search&utm_source=AjN1MMXyFUuMRUP2FepIVg", "review_count": 201, "categories": [{"alias": "bbq", "title": "Barbeque"}], "rating": 4.5, "coordinates": {"latitude": 42.72038, "longitude": -84.55202}, "transactions": ["delivery", "pickup"], "price": "$$", "location": {"address1": "1147 S Washington Ave", "address2": "", "address3": "", "city": "Lansing", "zip_code": "48910", "country": "US", "state": "MI", "display_address": ["1147 S Washington Ave", "Lansing, MI 48910"]}, "phone": "+15172537556", "display_phone": "(517) 253-7556", "distance": 1622.3742502199063}, {"id": "zrCLyj2GEW1LGD_lT7oQ-g", "alias": "the-creole-burger-bar-and-southern-kitchen-lansing", "name": "The Creole Burger Bar & Southern Kitchen", "image_url": "https://s3-media2.fl.yelpcdn.com/bphoto/jCb8S_CwuKgly4XA6qEBOw/o.jpg", "is_closed": false, "url": "https://www.yelp.com/biz/the-creole-burger-bar-and-southern-kitchen-lansing?adjust_creative=AjN1MMXyFUuMRUP2FepIVg&utm_campaign=yelp_api_v3&utm_medium=api_v3_business_search&utm_source=AjN1MMXyFUuMRUP2FepIVg", "review_count": 235, "categories": [{"alias": "wine_bars", "title": "Wine Bars"}, {"alias": "burgers", "title": "Burgers"}, {"alias": "southern", "title": "Southern"}], "rating": 4.0, "coordinates": {"latitude": 42.747993, "longitude": -84.5494029}, "transactions": ["delivery"], "price": "$$", "location": {"address1": "1218 Turner St", "address2": null, "address3": "", "city": "Lansing", "zip_code": "48906", "country": "US", "state": "MI", "display_address": ["1218 Turner St", "Lansing, MI 48906"]}, "phone": "+15172675372", "display_phone": "(517) 267-5372", "distance": 2707.1525049592083}, {"id": "2ZRA7Z0_laLeHVRE4_xF5g", "alias": "pablos-old-town-lansing-2", "name": "Pablo's Old Town", "image_url": "https://s3-media1.fl.yelpcdn.com/bphoto/KuzrNLZy9_qOXdj-RLDeZg/o.jpg", "is_closed": false, "url": "https://www.yelp.com/biz/pablos-old-town-lansing-2?adjust_creative=AjN1MMXyFUuMRUP2FepIVg&utm_campaign=yelp_api_v3&utm_medium=api_v3_business_search&utm_source=AjN1MMXyFUuMRUP2FepIVg", "review_count": 230, "categories": [{"alias": "mexican", "title": "Mexican"}], "rating": 4.0, "coordinates": {"latitude": 42.7475886, "longitude": -84.5489294}, "transactions": ["delivery"], "price": "$", "location": {"address1": "311 E Grand River Ave", "address2": "", "address3": "", "city": "Lansing", "zip_code": "48906", "country": "US", "state": "MI", "display_address": ["311 E Grand River Ave", "Lansing, MI 48906"]}, "phone": "+15173720887", "display_phone": "(517) 372-0887", "distance": 2680.832573817081}, {"id": "v_nnjYy7j0U3Ey8ucwYbEA", "alias": "joses-cuban-sandwich-and-deli-lansing-3", "name": "Jose's Cuban Sandwich & Deli", "image_url": "https://s3-media2.fl.yelpcdn.com/bphoto/BJ4RjLmheWNZJH0844OgWw/o.jpg", "is_closed": false, "url": "https://www.yelp.com/biz/joses-cuban-sandwich-and-deli-lansing-3?adjust_creative=AjN1MMXyFUuMRUP2FepIVg&utm_campaign=yelp_api_v3&utm_medium=api_v3_business_search&utm_source=AjN1MMXyFUuMRUP2FepIVg", "review_count": 133, "categories": [{"alias": "cuban", "title": "Cuban"}, {"alias": "delis", "title": "Delis"}, {"alias": "sandwiches", "title": "Sandwiches"}], "rating": 4.5, "coordinates": {"latitude": 42.7295761108398, "longitude": -84.5374908447266}, "transactions": ["delivery", "pickup"], "price": "$", "location": {"address1": "401 S Pennsylvania Ave", "address2": "", "address3": "", "city": "Lansing", "zip_code": "48912", "country": "US", "state": "MI", "display_address": ["401 S Pennsylvania Ave", "Lansing, MI 48912"]}, "phone": "+15173746832", "display_phone": "(517) 374-6832", "distance": 2549.7332942873563}, {"id": "rGbhcAZ-pDYyw3Y938XGng", "alias": "capital-city-bbq-lansing", "name": "Capital City BBQ", "image_url": "https://s3-media4.fl.yelpcdn.com/bphoto/tGG1EhT-cU87z9KW1Rkdeg/o.jpg", "is_closed": false, "url": "https://www.yelp.com/biz/capital-city-bbq-lansing?adjust_creative=AjN1MMXyFUuMRUP2FepIVg&utm_campaign=yelp_api_v3&utm_medium=api_v3_business_search&utm_source=AjN1MMXyFUuMRUP2FepIVg", "review_count": 131, "categories": [{"alias": "bbq", "title": "Barbeque"}, {"alias": "burgers", "title": "Burgers"}, {"alias": "vietnamese", "title": "Vietnamese"}], "rating": 4.0, "coordinates": {"latitude": 42.741176, "longitude": -84.567016}, "transactions": ["delivery"], "price": "$", "location": {"address1": "1026 W Saginaw St", "address2": null, "address3": "", "city": "Lansing", "zip_code": "48915", "country": "US", "state": "MI", "display_address": ["1026 W Saginaw St", "Lansing, MI 48915"]}, "phone": "+15177211500", "display_phone": "(517) 721-1500", "distance": 1437.1422387723826}, {"id": "KKU55JQHEdULkiuAc0GABA", "alias": "sushi-moto-lansing", "name": "Sushi Moto", "image_url": "https://s3-media3.fl.yelpcdn.com/bphoto/rUmJ62hd2PvdCd3b14CZRw/o.jpg", "is_closed": false, "url": "https://www.yelp.com/biz/sushi-moto-lansing?adjust_creative=AjN1MMXyFUuMRUP2FepIVg&utm_campaign=yelp_api_v3&utm_medium=api_v3_business_search&utm_source=AjN1MMXyFUuMRUP2FepIVg", "review_count": 139, "categories": [{"alias": "japanese", "title": "Japanese"}, {"alias": "sushi", "title": "Sushi Bars"}], "rating": 4.5, "coordinates": {"latitude": 42.7385864257812, "longitude": -84.6211624145508}, "transactions": ["delivery"], "price": "$$", "location": {"address1": "436 Elmwood Rd", "address2": "", "address3": "", "city": "Lansing", "zip_code": "48917", "country": "US", "state": "MI", "display_address": ["436 Elmwood Rd", "Lansing, MI 48917"]}, "phone": "+15175804321", "display_phone": "(517) 580-4321", "distance": 4439.557367106441}, {"id": "TNlx1Ax-W-9jZC2n6DQ8iQ", "alias": "fidlers-on-the-grand-lansing", "name": "Fidler's on the Grand", "image_url": "https://s3-media4.fl.yelpcdn.com/bphoto/tIDLDvDRBdJq-E05uR28FA/o.jpg", "is_closed": false, "url": "https://www.yelp.com/biz/fidlers-on-the-grand-lansing?adjust_creative=AjN1MMXyFUuMRUP2FepIVg&utm_campaign=yelp_api_v3&utm_medium=api_v3_business_search&utm_source=AjN1MMXyFUuMRUP2FepIVg", "review_count": 80, "categories": [{"alias": "cafes", "title": "Cafes"}, {"alias": "breakfast_brunch", "title": "Breakfast & Brunch"}, {"alias": "tradamerican", "title": "American (Traditional)"}], "rating": 4.5, "coordinates": {"latitude": 42.7676299, "longitude": -84.59465}, "transactions": ["delivery"], "price": "$", "location": {"address1": "4805 N Grand River Ave", "address2": null, "address3": "", "city": "Lansing", "zip_code": "48906", "country": "US", "state": "MI", "display_address": ["4805 N Grand River Ave", "Lansing, MI 48906"]}, "phone": "+15175807202", "display_phone": "(517) 580-7202", "distance": 4852.055857267629}, {"id": "89rBUiOPM3gRrFcQlalCqw", "alias": "blue-owl-coffee-lansing-3", "name": "Blue Owl Coffee", "image_url": "https://s3-media1.fl.yelpcdn.com/bphoto/OSydh5TxbtidWTBDzqIKbw/o.jpg", "is_closed": false, "url": "https://www.yelp.com/biz/blue-owl-coffee-lansing-3?adjust_creative=AjN1MMXyFUuMRUP2FepIVg&utm_campaign=yelp_api_v3&utm_medium=api_v3_business_search&utm_source=AjN1MMXyFUuMRUP2FepIVg", "review_count": 76, "categories": [{"alias": "coffee", "title": "Coffee & Tea"}], "rating": 4.5, "coordinates": {"latitude": 42.7202932468045, "longitude": -84.5521514477719}, "transactions": ["delivery"], "price": "$$", "location": {"address1": "1149 S Washington Ave", "address2": "", "address3": null, "city": "Lansing", "zip_code": "48910", "country": "US", "state": "MI", "display_address": ["1149 S Washington Ave", "Lansing, MI 48910"]}, "phone": "+15175756836", "display_phone": "(517) 575-6836", "distance": 1614.526378042817}, {"id": "nKE2Fi-5TEEWAv1F5VGiKg", "alias": "la-cocina-cubana-lansing-2", "name": "La Cocina Cubana", "image_url": "https://s3-media3.fl.yelpcdn.com/bphoto/AWzHsf6Ug3LjUtTE-Cdo9w/o.jpg", "is_closed": false, "url": "https://www.yelp.com/biz/la-cocina-cubana-lansing-2?adjust_creative=AjN1MMXyFUuMRUP2FepIVg&utm_campaign=yelp_api_v3&utm_medium=api_v3_business_search&utm_source=AjN1MMXyFUuMRUP2FepIVg", "review_count": 67, "categories": [{"alias": "cuban", "title": "Cuban"}, {"alias": "sandwiches", "title": "Sandwiches"}], "rating": 4.5, "coordinates": {"latitude": 42.73272, "longitude": -84.55192}, "transactions": ["delivery", "pickup"], "price": "$", "location": {"address1": "123 S Washington Sq", "address2": "", "address3": "", "city": "Lansing", "zip_code": "48906", "country": "US", "state": "MI", "display_address": ["123 S Washington Sq", "Lansing, MI 48906"]}, "phone": "+15177088144", "display_phone": "(517) 708-8144", "distance": 1452.1896796472818}, {"id": "h5yduoeXA8JUjFThUZ_eDg", "alias": "nola-bistro-lansing", "name": "Nola Bistro", "image_url": "https://s3-media4.fl.yelpcdn.com/bphoto/AO7qqJwC3F7aS0kc_p4QMw/o.jpg", "is_closed": false, "url": "https://www.yelp.com/biz/nola-bistro-lansing?adjust_creative=AjN1MMXyFUuMRUP2FepIVg&utm_campaign=yelp_api_v3&utm_medium=api_v3_business_search&utm_source=AjN1MMXyFUuMRUP2FepIVg", "review_count": 145, "categories": [{"alias": "vietnamese", "title": "Vietnamese"}, {"alias": "cajun", "title": "Cajun/Creole"}, {"alias": "tacos", "title": "Tacos"}], "rating": 4.0, "coordinates": {"latitude": 42.739769, "longitude": -84.60342}, "transactions": ["delivery"], "price": "$$", "location": {"address1": "603 N Waverly Rd", "address2": "", "address3": "", "city": "Lansing", "zip_code": "48917", "country": "US", "state": "MI", "display_address": ["603 N Waverly Rd", "Lansing, MI 48917"]}, "phone": "+15173274771", "display_phone": "(517) 327-4771", "distance": 3113.9182111468895}, {"id": "b2DXuQuIlnft154Y9rHLwA", "alias": "green-dot-stables-lansing", "name": "Green Dot Stables", "image_url": "https://s3-media1.fl.yelpcdn.com/bphoto/IRwFRVrYMbaFqWvrfYILMA/o.jpg", "is_closed": false, "url": "https://www.yelp.com/biz/green-dot-stables-lansing?adjust_creative=AjN1MMXyFUuMRUP2FepIVg&utm_campaign=yelp_api_v3&utm_medium=api_v3_business_search&utm_source=AjN1MMXyFUuMRUP2FepIVg", "review_count": 127, "categories": [{"alias": "newamerican", "title": "American (New)"}], "rating": 4.0, "coordinates": {"latitude": 42.72945, "longitude": -84.5089799}, "transactions": ["delivery"], "price": "$", "location": {"address1": "410 S Clippert St", "address2": null, "address3": "", "city": "Lansing", "zip_code": "48912", "country": "US", "state": "MI", "display_address": ["410 S Clippert St", "Lansing, MI 48912"]}, "phone": "+15175744214", "display_phone": "(517) 574-4214", "distance": 4883.66145621391}], "total": 924, "region": {"center": {"longitude": -84.56863403320312, "latitude": 42.72830621179706}}}